{"type":"FeatureCollection","features":[{"type":"Feature","geometry":{"type":"Point","coordinates":[80.11967476766709,12.928706542953071,0.0]},"properties":{"facility_id":"terminal_1","name":"Tambaram Bus Terminus","facility_type":"Terminal","ownership":"LB","served_routes":["104","105","105A","111","118","118ET","118G","118N","118T","121F","121H","166","18A","18G","18H","1B","202","266","31A","31B","31G","31M","31P","500","500E","500R","51","515","515A","515B","51A","51D","51F","555M","55B","55C","55D","55DET","55ET","55G","55M","55V","55X","66","66J","70","70C","70J","79A","89T","91","95","95W","99","99A","99C","A51","B18","J51","J66","S100 CMRL Feeder Service","S6","V51"],"served_route_count":63,"source":"bus_terminus.geojson","inside_cma":true}},{"type":"Feature","geometry":{"type":"Point","coordinates":[80.21158983613832,13.009077543796087,0.0]},"properties":{"facility_id":"terminal_2","name":"Guindy","facility_type":"Terminal","ownership":"LB","served_routes":["113","119","119G","170C","170CET","170K","21GCT","21X","3CT","45B","70LCT","B70CT","F70","S12","S13","S97 CMRL Feeder Service"],"served_route_count":16,"source":"bus_terminus.geojson","inside_cma":true}},{"type":"Feature","geometry":{"type":"Point","coordinates":[80.27563608750367,13.082054493804424,0.0]},"properties":{"facility_id":"terminal_3","name":"Chennai Central Terminus","facility_type":"Terminal","ownership":"LB","served_routes":["221","2ACT","A1","A1ET","S18K","S21C"],"served_route_count":6,"source":"bus_terminus.geojson","inside_cma":true}},{"type":"Feature","geometry":{"type":"Point","coordinates":[80.28388687526126,13.087167898786394,0.0]},"properties":{"facility_id":"terminal_4","name":"Broadway Bus Terminus","facility_type":"Terminal","ownership":"LB","served_routes":["101X","102","102C","102K","102P","102S","102X","109","109X","10E","11","11G","11G ET","11H","120","120A","120CT","120E","120F","120G","120K","120KET","13","142B","15","150","155A","15C","15F","15G","17D","17E","17K","188C","188ET","18A","18B","18D","18E","18G","18K","18N","18P","18R","18X","20","20A","20D","21","21C","21EET","21G","21GCT","21L","21X","221CT","242","26","26B","26M","26R","33B","33C","33L","35","35C","38A","38G","38H","4","42","42B","42C","42D","42M","44","44C","44CT","45B","4M","50","50ET","50M","51D","51J","52","52B","52K","53","53E","53P","54","54G","54L","557AET","56C","56D","56DET","56F","56J","56P","56T","57D","57F","57H","57J","57M","5C","6","60","60A","60D","60G","60H","64C","64D","64K","64KET","71D","71E","71EX","71H","71V","7E","7H","7K","7M","7MET","88C","88K","88KET","8B","8BET","9MET","A51","C56C","C56CET","D51ET","E18","E51","M51R","N45B","S5"],"served_route_count":143,"source":"bus_terminus.geojson","inside_cma":true}},{"type":"Feature","geometry":{"type":"Point","coordinates":[80.28029530629648,13.105957348027143,0.0]},"properties":{"facility_id":"terminal_5","name":"Vallalar Nagar Terminus (Mint)","facility_type":"Terminal","ownership":"MTC","served_routes":["36M","37","37CT","37G","48","48B","48BX","48C","48K","48P","547A","56","56A","57","57A","57C","57CCT","57X","59","8ACT"],"served_route_count":20,"source":"bus_terminus.geojson","inside_cma":true}},{"type":"Feature","geometry":{"type":"Point","coordinates":[80.29689622130306,13.143510393099401,0.0]},"properties":{"facility_id":"terminal_6","name":"Toll Gate Bus Terminus","facility_type":"Terminal","ownership":"MTC","served_routes":["10A","159B","28C","32A","36K","595","6D","6DET","8ACT","S169"],"served_route_count":10,"source":"bus_terminus.geojson","inside_cma":true}},{"type":"Feature","geometry":{"type":"Point","coordinates":[80.30615063843376,13.175440922288763,0.0]},"properties":{"facility_id":"terminal_7","name":"Thiruvottiyur Bus Terminus","facility_type":"Terminal","ownership":"MTC","served_routes":["1","101","109T","157","159","159A","1B","28","34","36V","38D","556","56C","C56C","S56 CMRL Feeder Service"],"served_route_count":15,"source":"bus_terminus.geojson","inside_cma":true}},{"type":"Feature","geometry":{"type":"Point","coordinates":[80.26568365084267,13.026578889710388,0.0]},"properties":{"facility_id":"terminal_8","name":"Mandavelli Bus Terminus","facility_type":"Terminal","ownership":"MTC","served_routes":["12M","21","29ET","41D","49F","S17"],"served_route_count":6,"source":"bus_terminus.geojson","inside_cma":true}},{"type":"Feature","geometry":{"type":"Point","coordinates":[80.25924716435404,12.986818814987126,0.0]},"properties":{"facility_id":"terminal_9","name":"Thiruvanmiyur Bus Terminus","facility_type":"Terminal","ownership":"MTC","served_routes":["1","102A","102CT","109C","1C","1D","3","47A","47D","49","523","523A","549","588","6","6D","6DET","78","91","91A","91V","95","95W","A1","A47","M1","M70","T29"],"served_route_count":28,"source":"bus_terminus.geojson","inside_cma":true}},{"type":"Feature","geometry":{"type":"Point","coordinates":[80.20569403076144,13.035389048101235,0.0]},"properties":{"facility_id":"terminal_10","name":"KK Nagar Bus Terminus","facility_type":"Terminal","ownership":"MTC","served_routes":["11G","12G","17D","S26","S30","S35","S87"],"served_route_count":7,"source":"bus_terminus.geojson","inside_cma":true}},{"type":"Feature","geometry":{"type":"Point","coordinates":[80.20709770542605,13.049221104819479,0.0]},"properties":{"facility_id":"terminal_11","name":"Vadapalani Bus Terminus","facility_type":"Terminal","ownership":"MTC","served_routes":["12B","15F","37C","37ECT","525","570V","5E","70G","88CT","88L","88M","M88","M88ET","M88T","S25","S31"],"served_route_count":16,"source":"bus_terminus.geojson","inside_cma":true}},{"type":"Feature","geometry":{"type":"Point","coordinates":[80.20522970262988,13.068758356389676,0.0]},"properties":{"facility_id":"terminal_12","name":"CMBT Bus Terminus","facility_type":"Terminal","ownership":"CMDA","served_routes":["104C","114","114C","114CCT","114D","114E","114ET","114G","114P","121","121A","121C","121CT","121D","121G","121M","121MET","12X","15","153","153A","153P","153T","159A","159B","159E","159K","15BET","16J","16K","27B","46","46ET","46G","48C","514","514ET","53S","553K","558L","570","570B","570C","570P","570S","570T","570X","58V","70A","70ACT","70C","70H","70N","70V","72CT","73","76","76B","76V","77","77A","77B","77CT","77E","77K","77M","77T","77V","77VET","78","M27","M70","S145","S28","S31","S51 CMRL Feeder Service","S60 CMRL Feeder Service","S87"],"served_route_count":78,"source":"bus_terminus.geojson","inside_cma":true}},{"type":"Feature","geometry":{"type":"Point","coordinates":[80.24827505810616,13.10843195954096,0.0]},"properties":{"facility_id":"terminal_13","name":"Perambur Bus Terminus","facility_type":"Terminal","ownership":"MTC","served_routes":["129C","142","142P","164","29A","29ACT","29B","29C","29CCT","29E","S44","S62","S64"],"served_route_count":13,"source":"bus_terminus.geojson","inside_cma":true}},{"type":"Feature","geometry":{"type":"Point","coordinates":[80.22405792338667,13.116259241874618,0.0]},"properties":{"facility_id":"terminal_14","name":"Periyar Nagar Bus Terminus","facility_type":"Terminal","ownership":"MTC","served_routes":["29AET","29CET","42","46ET"],"served_route_count":4,"source":"bus_terminus.geojson","inside_cma":true}},{"type":"Feature","geometry":{"type":"Point","coordinates":[80.20839703111639,13.105214072352307,0.0]},"properties":{"facility_id":"terminal_15","name":"Villivakkam Bus Terminus","facility_type":"Terminal","ownership":"MTC","served_routes":["20","22","23V","27D","37C","47","47A","48","63","S43","S44","S68"],"served_route_count":12,"source":"bus_terminus.geojson","inside_cma":true}},{"type":"Feature","geometry":{"type":"Point","coordinates":[80.15015445834682,13.119624363506153,0.0]},"properties":{"facility_id":"terminal_16","name":"Ambattur OT bus Terminus","facility_type":"Terminal","ownership":"LB","served_routes":["147C","41D","47C","S75"],"served_route_count":4,"source":"bus_terminus.geojson","inside_cma":true}},{"type":"Feature","geometry":{"type":"Point","coordinates":[80.16963350364708,13.09903748716817,0.0]},"properties":{"facility_id":"terminal_17","name":"Ambattur Estate Bus Terminus","facility_type":"Terminal","ownership":"MTC","served_routes":["147CCT","34","48A","572K","62A","63CT","65B","65CCT","73C","73CT","7E","D70","D70CT","D70X","S53","S58","S73"],"served_route_count":17,"source":"bus_terminus.geojson","inside_cma":true}},{"type":"Feature","geometry":{"type":"Point","coordinates":[80.10212981528043,13.120074037826189,0.0]},"properties":{"facility_id":"terminal_18","name":"Avadi Bus Terminus","facility_type":"Terminal","ownership":"MTC","served_routes":["120","150","202","206","266","47D","565","572","572A","580","580A","580M","580S","61A","61C","61E","61K","61R","62CT","65BCT","65D","65E","65G","65H","65K","70","70A","70ACT","73","77","77FCT","A47","S45","S47","S47M","S48","S50","S52"],"served_route_count":38,"source":"bus_terminus.geojson","inside_cma":true}},{"type":"Feature","geometry":{"type":"Point","coordinates":[80.32081341520885,13.214758917250974,0.0]},"properties":{"facility_id":"terminal_19","name":"Ennore Bus Terminus","facility_type":"Terminal","ownership":"MTC","served_routes":["121C","157E","159E","1C","1D","28B","4","56","56A"],"served_route_count":9,"source":"bus_terminus.geojson","inside_cma":true}},{"type":"Feature","geometry":{"type":"Point","coordinates":[80.27629431018612,13.022450987186339,0.0]},"properties":{"facility_id":"terminal_20","name":"Foreshore Estate Bus Terminus","facility_type":"Terminal","ownership":"MTC","served_routes":["12B","12E","12X","22","27D","32A"],"served_route_count":6,"source":"bus_terminus.geojson","inside_cma":true}},{"type":"Feature","geometry":{"type":"Point","coordinates":[80.13489438853009,13.037781971032791,0.0]},"properties":{"facility_id":"terminal_21","name":"Iyyapanthangal Bus Terminus","facility_type":"Terminal","ownership":"MTC","served_routes":["11G ET","11H","12M","166","166X","21EET","26","37E","37G","49","S24","S28"],"served_route_count":12,"source":"bus_terminus.geojson","inside_cma":true}},{"type":"Feature","geometry":{"type":"Point","coordinates":[80.2531003438264,13.00671650294625,0.0]},"properties":{"facility_id":"terminal_22","name":"Adayar Bus Terminus","facility_type":"Terminal","ownership":"MTC","served_routes":["109CT","19D","19P","519T","522","99","S17"],"served_route_count":7,"source":"bus_terminus.geojson","inside_cma":true}},{"type":"Feature","geometry":{"type":"Point","coordinates":[80.26550215813083,13.000401037392763,0.0]},"properties":{"facility_id":"terminal_23","name":"Besant Nagar Bus Terminus","facility_type":"Terminal","ownership":"MTC","served_routes":["23C","29C","29CET","29CEX","29CX","47","5E"],"served_route_count":7,"source":"bus_terminus.geojson","inside_cma":true}},{"type":"Feature","geometry":{"type":"Point","coordinates":[80.24202671436417,13.098484101726028,0.0]},"properties":{"facility_id":"terminal_24","name":"Ayanavaram Bus Terminus","facility_type":"Terminal","ownership":"MTC","served_routes":["114A","23C","S145"],"served_route_count":3,"source":"bus_terminus.geojson","inside_cma":true}},{"type":"Feature","geometry":{"type":"Point","coordinates":[80.1807258409065,13.080392496302872,0.0]},"properties":{"facility_id":"terminal_25","name":"Moggapair East Bus Terminus","facility_type":"Terminal","ownership":"MTC","served_routes":["147A","20A","40N","7H"],"served_route_count":4,"source":"bus_terminus.geojson","inside_cma":true}},{"type":"Feature","geometry":{"type":"Point","coordinates":[80.17041236074914,13.082194973216865,0.0]},"properties":{"facility_id":"terminal_26","name":"Moggapair West Bus Terminus","facility_type":"Terminal","ownership":"MTC","served_routes":["147B","40L","48AET","62B","70J","7M"],"served_route_count":6,"source":"bus_terminus.geojson","inside_cma":true}},{"type":"Feature","geometry":{"type":"Point","coordinates":[80.26548840160918,13.123381088914616,0.0]},"properties":{"facility_id":"terminal_27","name":"M.K.B Nagar Bus Terminus","facility_type":"Terminal","ownership":"MTC","served_routes":["37ECT","46G"],"served_route_count":2,"source":"bus_terminus.geojson","inside_cma":true}},{"type":"Feature","geometry":{"type":"Point","coordinates":[80.25677247435797,13.136144030265589,0.0]},"properties":{"facility_id":"terminal_28","name":"K Kannadasan Nagar Bus Terminu","facility_type":"Terminal","ownership":"MTC","served_routes":["121G","121H","2","2A","33B","33C","37E","64K"],"served_route_count":8,"source":"bus_terminus.geojson","inside_cma":true}},{"type":"Feature","geometry":{"type":"Point","coordinates":[80.23830376855581,12.925621638744799,0.0]},"properties":{"facility_id":"terminal_29","name":"Kannaki Nagar Bus Terminus","facility_type":"Terminal","ownership":"MTC","served_routes":["102K","21C","570C","5G","5GCT","5S","M19B"],"served_route_count":7,"source":"bus_terminus.geojson","inside_cma":true}},{"type":"Feature","geometry":{"type":"Point","coordinates":[80.21536177791555,13.062518957615366,0.0]},"properties":{"facility_id":"terminal_30","name":"MMDA Bus Terminus","facility_type":"Terminal","ownership":"MTC","served_routes":["15G"],"served_route_count":1,"source":"bus_terminus.geojson","inside_cma":true}},{"type":"Feature","geometry":{"type":"Point","coordinates":[80.23260242033368,13.119894574244752,0.0]},"properties":{"facility_id":"terminal_31","name":"T.V.K Nagar Bus Terminus","facility_type":"Terminal","ownership":"MTC","served_routes":["170C","38C","46","8B","T29"],"served_route_count":5,"source":"bus_terminus.geojson","inside_cma":true}},{"type":"Feature","geometry":{"type":"Point","coordinates":[80.23007120710419,13.03452173172808,0.0]},"properties":{"facility_id":"terminal_32","name":"T Nagar Bus Terminus","facility_type":"Terminal","ownership":"MTC","served_routes":["11","13","147A","147B","147C","147CCT","147V","154","188A","188K","19","19A","19BET","19C","3","47CX","47DCT","49A","51A","51BET","51F","51M","52C","54P","54S","54V","597","5B","5G","72","72M","88CET","9M","A5","G18","M18C","M19B","M27","M51","M51V","M60","S76","S86","S99 CMRL Feeder Service","V51"],"served_route_count":45,"source":"bus_terminus.geojson","inside_cma":true}},{"type":"Feature","geometry":{"type":"Point","coordinates":[80.12401841860137,13.069577437924083,0.0]},"properties":{"facility_id":"terminal_34","name":"Thiruverkadu Bus Terminus","facility_type":"Terminal","ownership":"MTC","served_routes":["111","159","29E","50","50M","59","63","63CT","72","72M","S24","S52","S59","S73"],"served_route_count":14,"source":"bus_terminus.geojson","inside_cma":true}},{"type":"Feature","geometry":{"type":"Point","coordinates":[80.20682739822318,12.9946055905928,0.0]},"properties":{"facility_id":"terminal_35","name":"NGO Colony Bus Terminus","facility_type":"Terminal","ownership":"MTC","served_routes":[],"served_route_count":0,"source":"bus_terminus.geojson","inside_cma":true}},{"type":"Feature","geometry":{"type":"Point","coordinates":[80.26279566615551,13.079509627410609,0.0]},"properties":{"facility_id":"terminal_36","name":"Egmore Bus Terminus","facility_type":"Terminal","ownership":"LB","served_routes":["28","28A","28B","29ACT"],"served_route_count":4,"source":"bus_terminus.geojson","inside_cma":true}},{"type":"Feature","geometry":{"type":"Point","coordinates":[80.28431506322535,13.066482579072304,0.0]},"properties":{"facility_id":"terminal_37","name":"Anna Square Bus Terminus","facility_type":"Terminal","ownership":"LB","served_routes":["12G","2","25","27B","29A","29AET","29AEX","2A","2ACT","40A","40H","40L","40N","45BET","A45B"],"served_route_count":15,"source":"bus_terminus.geojson","inside_cma":true}},{"type":"Feature","geometry":{"type":"Point","coordinates":[80.15062555243061,12.940491699737171,0.0]},"properties":{"facility_id":"terminal_39","name":"Hasthinapuram Bus Terminus","facility_type":"Terminal","ownership":"LB","served_routes":["500A","500ET","52B","52C","52H","66A","70H","91A","M18G"],"served_route_count":9,"source":"bus_terminus.geojson","inside_cma":true}},{"type":"Feature","geometry":{"type":"Point","coordinates":[80.28208820387937,13.139061763770718,0.0]},"properties":{"facility_id":"terminal_40","name":"IOC Bus Terminus","facility_type":"Terminal","ownership":"LB","served_routes":["44CT","SC1"],"served_route_count":2,"source":"bus_terminus.geojson","inside_cma":true}},{"type":"Feature","geometry":{"type":"Point","coordinates":[80.25370159356811,13.282042065317208,0.0]},"properties":{"facility_id":"terminal_41","name":"Minjur Bus Terminus","facility_type":"Terminal","ownership":"LB","served_routes":["121","164","4M","558A","56P"],"served_route_count":5,"source":"bus_terminus.geojson","inside_cma":true}},{"type":"Feature","geometry":{"type":"Point","coordinates":[80.18619524892988,12.95604328832433,0.0]},"properties":{"facility_id":"terminal_43","name":"Keelkattlai Bus Terminus","facility_type":"Terminal","ownership":"LB","served_routes":["18D","18N","18P","552K","M1","M18C","N45B","S18D","S19","S74","V51CT"],"served_route_count":11,"source":"bus_terminus.geojson","inside_cma":true}},{"type":"Feature","geometry":{"type":"Point","coordinates":[80.18419872460782,13.11156804916312,0.0]},"properties":{"facility_id":"terminal_45","name":"Korattur","facility_type":"Terminal","ownership":"LB","served_routes":["35","35C","47DCT","70LCT","S42"],"served_route_count":5,"source":"bus_terminus.geojson","inside_cma":true}},{"type":"Feature","geometry":{"type":"Point","coordinates":[80.09600960825706,12.997106443379037,0.0]},"properties":{"facility_id":"terminal_46","name":"Kundrathur","facility_type":"Terminal","ownership":"LB","served_routes":["16K","188A","188C","188ET","53E","566","578A","60A","66A","66CT","88D","88K","89T","89T CT","S66","S69 CMRL Feeder Service"],"served_route_count":16,"source":"bus_terminus.geojson","inside_cma":true}},{"type":"Feature","geometry":{"type":"Point","coordinates":[80.15026059673903,12.969300891633813,0.0]},"properties":{"facility_id":"terminal_47","name":"Pallavaram","facility_type":"Terminal","ownership":"LB","served_routes":["517K","55A","55AET","S1","S165","S167","S40","S66","S74"],"served_route_count":9,"source":"bus_terminus.geojson","inside_cma":true}},{"type":"Feature","geometry":{"type":"Point","coordinates":[80.14404498016133,12.989699923890894,0.0]},"properties":{"facility_id":"terminal_48","name":"Pozhichalur","facility_type":"Terminal","ownership":"LB","served_routes":["52","52H","60G","M52ET","S81"],"served_route_count":5,"source":"bus_terminus.geojson","inside_cma":true}},{"type":"Feature","geometry":{"type":"Point","coordinates":[80.27647742741645,13.119339507817068,0.0]},"properties":{"facility_id":"terminal_49","name":"Korukkupet","facility_type":"Terminal","ownership":"LB","served_routes":["32B","B18"],"served_route_count":2,"source":"bus_terminus.geojson","inside_cma":true}},{"type":"Feature","geometry":{"type":"Point","coordinates":[80.25716854059503,13.169978433052584,0.0]},"properties":{"facility_id":"terminal_50","name":"Manali","facility_type":"Terminal","ownership":"LB","served_routes":["121A","121MET","170CET","38A","44","44C","56D","64C","S56 CMRL Feeder Service","S62","S63"],"served_route_count":11,"source":"bus_terminus.geojson","inside_cma":true}},{"type":"Feature","geometry":{"type":"Point","coordinates":[80.22841980485266,13.152291475952689,0.0]},"properties":{"facility_id":"terminal_51","name":"Madhavaram","facility_type":"Terminal","ownership":"LB","served_routes":["121F","121M","38H","48A","48AET"],"served_route_count":5,"source":"bus_terminus.geojson","inside_cma":true}},{"type":"Feature","geometry":{"type":"Point","coordinates":[80.1822459780526,12.91956238245519,0.0]},"properties":{"facility_id":"terminal_53","name":"Medavakkam","facility_type":"Terminal","ownership":"LB","served_routes":["14M","31G","76","S2","S4"],"served_route_count":5,"source":"bus_terminus.geojson","inside_cma":true}},{"type":"Feature","geometry":{"type":"Point","coordinates":[80.0611338364704,13.1228627998901,0.0]},"properties":{"facility_id":"terminal_54","name":"Pattabiram","facility_type":"Terminal","ownership":"LB","served_routes":["40A","40H","53S","54C","71E","F70"],"served_route_count":6,"source":"bus_terminus.geojson","inside_cma":true}},{"type":"Feature","geometry":{"type":"Point","coordinates":[80.09494858547993,13.051154245973553,0.0]},"properties":{"facility_id":"terminal_56","name":"Poonamalle","facility_type":"Terminal","ownership":"LB","served_routes":["101","153","154","154B","16J","25","37","49A","49F","53","53G","54","54C","578","578ET","578PCT","591","591C","597A","597C","62","62M","65B","65BCT","65E","65K","66","66CT","66J","66X","J66","S45","S50","S54VCT"],"served_route_count":34,"source":"bus_terminus.geojson","inside_cma":true}},{"type":"Feature","geometry":{"type":"Point","coordinates":[80.15865530256228,13.130329063456214,0.0]},"properties":{"facility_id":"terminal_57","name":"Pudur","facility_type":"Terminal","ownership":"LB","served_routes":["48B","71D","S43"],"served_route_count":3,"source":"bus_terminus.geojson","inside_cma":true}},{"type":"Feature","geometry":{"type":"Point","coordinates":[80.18398529366473,13.192889793979145,0.0]},"properties":{"facility_id":"terminal_58","name":"Red Hills","facility_type":"Terminal","ownership":"LB","served_routes":["104","113","114","114A","157","157E","242","36K","36V","505","505K","512","547","557C","557M","558A","558B","558C","558P","57","57B","57E","58V","592","592V","593CT","61R","62","62A","62B","62CT","65H"],"served_route_count":32,"source":"bus_terminus.geojson","inside_cma":true}},{"type":"Feature","geometry":{"type":"Point","coordinates":[80.22771360087624,13.023430871785093,0.0]},"properties":{"facility_id":"terminal_59","name":"Saidapet","facility_type":"Terminal","ownership":"LB","served_routes":["14M","19B","29B","51B","54B","54E","54K","5S","65A","72CT","88R","M51D","S18D","S30","V51CT"],"served_route_count":15,"source":"bus_terminus.geojson","inside_cma":true}},{"type":"Feature","geometry":{"type":"Point","coordinates":[80.12727393893209,12.937144895852043,0.0]},"properties":{"facility_id":"terminal_60","name":"Tambaram Sanatorium","facility_type":"Terminal","ownership":"LB","served_routes":["579A","579C","583","583C","583D","79V"],"served_route_count":6,"source":"bus_terminus.geojson","inside_cma":true}},{"type":"Feature","geometry":{"type":"Point","coordinates":[80.22094925741149,12.975877167176412,0.0]},"properties":{"facility_id":"terminal_61","name":"Velachery","facility_type":"Terminal","ownership":"LB","served_routes":["21L","23V","29NET","51","568B","5GCT","D70","D70CT","D70X","J51","S13","S93","S95","S97 CMRL Feeder Service"],"served_route_count":14,"source":"bus_terminus.geojson","inside_cma":true}},{"type":"Feature","geometry":{"type":"Point","coordinates":[80.209696770868,12.886691506619446,0.0]},"properties":{"facility_id":"terminal_65","name":"Perumbakkam","facility_type":"Terminal","ownership":"LB","served_routes":["119G","221CT","570P"],"served_route_count":3,"source":"bus_terminus.geojson","inside_cma":true}},{"type":"Feature","geometry":{"type":"Point","coordinates":[80.21338840573105,13.008046699850338,0.0]},"properties":{"facility_id":"terminal_67","name":"Guindy Race Course","facility_type":"Terminal","ownership":"LB","served_routes":["113","119","119G","170C","170CET","170K","21GCT","21X","3CT","45B","70LCT","B70CT","F70","S12","S13","S97 CMRL Feeder Service"],"served_route_count":16,"source":"bus_terminus.geojson","inside_cma":true}},{"type":"Feature","geometry":{"type":"Point","coordinates":[80.20062592365491,13.069258365068977,0.0]},"properties":{"facility_id":"terminal_68","name":"Koyambedu Market","facility_type":"Terminal","ownership":"LB","served_routes":["104C","114","114C","114CCT","114D","114E","114ET","114G","114P","114S","121","121A","121C","121CT","121D","121G","121M","121MET","12X","15","153","153A","153P","153T","159A","159B","159E","159K","15BET","16J","16K","27B","46","46ET","46G","48C","514","514ET","53S","553K","558L","570","570B","570C","570P","570S","570T","570X","58V","70A","70ACT","70C","70H","70N","70V","72CT","73","76","76B","76V","77","77A","77B","77CT","77E","77K","77M","77P","77T","77V","77VET","78","M27","M70","S145","S28","S31","S51 CMRL Feeder Service","S60 CMRL Feeder Service","S87"],"served_route_count":80,"source":"bus_terminus.geojson","inside_cma":true}},{"type":"Feature","geometry":{"type":"Point","coordinates":[80.21295054136336,13.024252732182163,0.0]},"properties":{"facility_id":"terminal_69","name":"Saidapet West","facility_type":"Terminal","ownership":"LB","served_routes":["10A","18K","19GCT","500W","553W","88D","S18K"],"served_route_count":7,"source":"bus_terminus.geojson","inside_cma":true}},{"type":"Feature","geometry":{"type":"Point","coordinates":[80.22127282638698,13.14510102642503,0.0]},"properties":{"facility_id":"terminal_71","name":"MMBT","facility_type":"Terminal","ownership":"CMDA","served_routes":["121CT","42M","557","62M","8BET","S68"],"served_route_count":6,"source":"bus_terminus.geojson","inside_cma":true}},{"type":"Feature","geometry":{"type":"Point","coordinates":[80.08027424378272,12.880144835149263,0.0]},"properties":{"facility_id":"terminal_72","name":"Vandalur Zoo","facility_type":"Terminal","ownership":"LB","served_routes":["166X","19V","21G","515K","70V"],"served_route_count":5,"source":"bus_terminus.geojson","inside_cma":true}},{"type":"Feature","geometry":{"type":"Point","coordinates":[80.27783293575814,13.051201952403524,0.0]},"properties":{"facility_id":"terminal_73","name":"Vivekananda House","facility_type":"Terminal","ownership":"LB","served_routes":["24A","29D","32B","38C","45A"],"served_route_count":5,"source":"bus_terminus.geojson","inside_cma":true}},{"type":"Feature","geometry":{"type":"Point","coordinates":[80.03246111233615,13.124782579444414,0.0]},"properties":{"facility_id":"terminal_74","name":"Thirunindravur","facility_type":"Terminal","ownership":"LB","served_routes":["597C","71EX"],"served_route_count":2,"source":"bus_terminus.geojson","inside_cma":true}},{"type":"Feature","geometry":{"type":"Point","coordinates":[80.15632653944013,13.249404560568376,0.0]},"properties":{"facility_id":"terminal_75","name":"Karanodai","facility_type":"Terminal","ownership":"LB","served_routes":["57F"],"served_route_count":1,"source":"bus_terminus.geojson","inside_cma":true}},{"type":"Feature","geometry":{"type":"Point","coordinates":[80.25332999999999,13.006575]},"properties":{"facility_id":"depot_1","name":"Adyar Old Depot","facility_type":"Terminal","ownership":"Inferred","served_routes":["109CT","19D","19P","519T","522","99"],"served_route_count":6,"source":"inferred terminal/facility from all_mtc_routes source/destination endpoint","inside_cma":true}},{"type":"Feature","geometry":{"type":"Point","coordinates":[80.19861,13.093900000000001]},"properties":{"facility_id":"depot_2","name":"Anna Nagar West Depot","facility_type":"Terminal","ownership":"Inferred","served_routes":["15C","24A"],"served_route_count":2,"source":"inferred terminal/facility from all_mtc_routes source/destination endpoint","inside_cma":true}},{"type":"Feature","geometry":{"type":"Point","coordinates":[80.24228666666666,13.098433333333332]},"properties":{"facility_id":"depot_3","name":"Ayanavaram Bus Depot","facility_type":"Terminal","ownership":"Inferred","served_routes":["114A","23C","S145"],"served_route_count":3,"source":"inferred terminal/facility from all_mtc_routes source/destination endpoint","inside_cma":true}},{"type":"Feature","geometry":{"type":"Point","coordinates":[80.20518259740263,13.069012727272737]},"properties":{"facility_id":"depot_4","name":"CMBT Koyembedu Bus Depot","facility_type":"Terminal","ownership":"Inferred","served_routes":["104C","114","114C","114CCT","114D","114E","114ET","114G","114P","121","121A","121C","121CT","121D","121G","121M","121MET","12X","15","153","153A","153P","153T","159A","159B","159E","159K","15BET","16J","16K","27B","46","46ET","46G","48C","514","514ET","53S","553K","558L","570","570B","570C","570P","570S","570T","570X","58V","70A","70ACT","70H","70N","70V","72CT","73","76","76B","76V","77","77A","77B","77CT","77E","77K","77M","77T","77V","77VET","78","M27","M70","S145","S28","S31","S51 CMRL Feeder Service","S60 CMRL Feeder Service","S87"],"served_route_count":77,"source":"inferred terminal/facility from all_mtc_routes source/destination endpoint","inside_cma":true}},{"type":"Feature","geometry":{"type":"Point","coordinates":[80.32049222222223,13.214903333333332]},"properties":{"facility_id":"depot_5","name":"Ennore Bus Depot","facility_type":"Terminal","ownership":"Inferred","served_routes":["121C","157E","159E","1C","1D","28B","4","56","56A"],"served_route_count":9,"source":"inferred terminal/facility from all_mtc_routes source/destination endpoint","inside_cma":true}},{"type":"Feature","geometry":{"type":"Point","coordinates":[80.28186666666666,13.139063333333333]},"properties":{"facility_id":"depot_7","name":"Ioc Bus Depot","facility_type":"Terminal","ownership":"Inferred","served_routes":["44CT","SC1"],"served_route_count":2,"source":"inferred terminal/facility from all_mtc_routes source/destination endpoint","inside_cma":true}},{"type":"Feature","geometry":{"type":"Point","coordinates":[80.13501583333333,13.037961666666668]},"properties":{"facility_id":"depot_8","name":"Iyyappanthangal Bus Depot","facility_type":"Terminal","ownership":"Inferred","served_routes":["11G ET","11H","12M","166","166X","21EET","26","37E","37G","49","S24","S28"],"served_route_count":12,"source":"inferred terminal/facility from all_mtc_routes source/destination endpoint","inside_cma":true}},{"type":"Feature","geometry":{"type":"Point","coordinates":[80.09635000000002,12.997093750000005]},"properties":{"facility_id":"depot_9","name":"Kundrathur Bus Depot","facility_type":"Terminal","ownership":"Inferred","served_routes":["16K","188A","188C","188ET","53E","566","578A","60A","66A","66CT","88D","88K","89T","89T CT","S66","S69 CMRL Feeder Service"],"served_route_count":16,"source":"inferred terminal/facility from all_mtc_routes source/destination endpoint","inside_cma":true}},{"type":"Feature","geometry":{"type":"Point","coordinates":[80.22813,13.15215]},"properties":{"facility_id":"depot_10","name":"Madhavaram New Bus Depot","facility_type":"Terminal","ownership":"Inferred","served_routes":["121F","121M","38H","48A","48AET"],"served_route_count":5,"source":"inferred terminal/facility from all_mtc_routes source/destination endpoint","inside_cma":true}},{"type":"Feature","geometry":{"type":"Point","coordinates":[80.25937714285715,12.986999285714287]},"properties":{"facility_id":"depot_11","name":"Thiruvanmiyur Depot","facility_type":"Terminal","ownership":"Inferred","served_routes":["1","102A","102CT","109C","1C","1D","3","47A","47D","49","523","523A","549","588","6","6D","6DET","78","91","91A","91V","95","95W","A1","A47","M1","M70","T29"],"served_route_count":28,"source":"inferred terminal/facility from all_mtc_routes source/destination endpoint","inside_cma":true}},{"type":"Feature","geometry":{"type":"Point","coordinates":[80.232338,13.11986]},"properties":{"facility_id":"depot_12","name":"Thiruvika Nagar Bus Depot","facility_type":"Terminal","ownership":"Inferred","served_routes":["170C","38C","46","8B","T29"],"served_route_count":5,"source":"inferred terminal/facility from all_mtc_routes source/destination endpoint","inside_cma":true}},{"type":"Feature","geometry":{"type":"Point","coordinates":[80.30525,13.17208]},"properties":{"facility_id":"depot_13","name":"Thiruvottiyur Ajax Bus Depot","facility_type":"Terminal","ownership":"Inferred","served_routes":["S56 CMRL Feeder Service"],"served_route_count":1,"source":"inferred terminal/facility from all_mtc_routes source/destination endpoint","inside_cma":true}},{"type":"Feature","geometry":{"type":"Point","coordinates":[80.23010177777776,13.034448444444438]},"properties":{"facility_id":"depot_14","name":"Thiyagaraya Nagar Bus Depot","facility_type":"Terminal","ownership":"Inferred","served_routes":["11","13","147A","147B","147C","147CCT","147V","154","188A","188K","19","19A","19BET","19C","3","47CX","47DCT","49A","51A","51BET","51F","51M","52C","54P","54S","54V","597","5B","5G","72","72M","88CET","9M","A5","G18","M18C","M19B","M27","M51","M51V","M60","S76","S86","S99 CMRL Feeder Service","V51"],"served_route_count":45,"source":"inferred terminal/facility from all_mtc_routes source/destination endpoint","inside_cma":true}},{"type":"Feature","geometry":{"type":"Point","coordinates":[80.27629,13.10407]},"properties":{"facility_id":"depot_15","name":"Vallalar Nagar Bus Depot","facility_type":"Terminal","ownership":"Inferred","served_routes":["48","48P","547A","57CCT"],"served_route_count":4,"source":"inferred terminal/facility from all_mtc_routes source/destination endpoint","inside_cma":true}}]}