{"type":"FeatureCollection","features":[{"type":"Feature","geometry":{"type":"Point","coordinates":[80.24808544100006,13.045118783000074,0.0]},"properties":{"Name":"AG-DMS","Line":["Blue"]}},{"type":"Feature","geometry":{"type":"Point","coordinates":[80.16410939100007,12.98077272300003,0.0]},"properties":{"Name":"CHENNAI AIRPORT","Line":["Blue"]}},{"type":"Feature","geometry":{"type":"Point","coordinates":[80.17622048900006,12.987574694000045,0.0]},"properties":{"Name":"MEENAMBAKKAM","Line":["Blue"]}},{"type":"Feature","geometry":{"type":"Point","coordinates":[80.19392073400007,12.999836763000076,0.0]},"properties":{"Name":"OTA - NANGANALLUR ROAD","Line":["Blue"]}},{"type":"Feature","geometry":{"type":"Point","coordinates":[80.20152294600007,13.004254619000049,0.0]},"properties":{"Name":"ALANDUR","Line":["Blue","Green"]}},{"type":"Feature","geometry":{"type":"Point","coordinates":[80.21307939900004,13.009272010000075,0.0]},"properties":{"Name":"GUINDY","Line":["Blue"]}},{"type":"Feature","geometry":{"type":"Point","coordinates":[80.22387044200008,13.014458419000052,0.0]},"properties":{"Name":"LITTLE MOUNT","Line":["Blue"]}},{"type":"Feature","geometry":{"type":"Point","coordinates":[80.22829602300004,13.023613043000067,0.0]},"properties":{"Name":"SAIDAPET","Line":["Blue"]}},{"type":"Feature","geometry":{"type":"Point","coordinates":[80.24107159100004,13.031544400000028,0.0]},"properties":{"Name":"NANDANAM","Line":["Blue"]}},{"type":"Feature","geometry":{"type":"Point","coordinates":[80.24651459000006,13.036976433000063,0.0]},"properties":{"Name":"TEYNAMPET","Line":["Blue"]}},{"type":"Feature","geometry":{"type":"Point","coordinates":[80.25859663400007,13.058332329000054,0.0]},"properties":{"Name":"THOUSAND LIGHT","Line":["Blue"]}},{"type":"Feature","geometry":{"type":"Point","coordinates":[80.26602130100008,13.064538235000041,0.0]},"properties":{"Name":"LIC","Line":["Blue"]}},{"type":"Feature","geometry":{"type":"Point","coordinates":[80.27291508800005,13.069476569000074,0.0]},"properties":{"Name":"GOVERNMENT ESTATe","Line":["Blue"]}},{"type":"Feature","geometry":{"type":"Point","coordinates":[80.27399589900006,13.081523562000031,0.0]},"properties":{"Name":"CENTRAL METRO","Line":["Blue","Green"]}},{"type":"Feature","geometry":{"type":"Point","coordinates":[80.28505707900007,13.087341319000073,0.0]},"properties":{"Name":"HIGH COURT","Line":["Blue"]}},{"type":"Feature","geometry":{"type":"Point","coordinates":[80.28615922400007,13.095400808000022,0.0]},"properties":{"Name":"MANNADI","Line":["Blue"]}},{"type":"Feature","geometry":{"type":"Point","coordinates":[80.28096713000008,13.107674470000063,0.0]},"properties":{"Name":"WASHERMANPET","Line":["Blue"]}},{"type":"Feature","geometry":{"type":"Point","coordinates":[80.28494597700006,13.116248316000053,0.0]},"properties":{"Name":"THIYAGARAYA COLLEGE","Line":["Blue"]}},{"type":"Feature","geometry":{"type":"Point","coordinates":[80.28853025000006,13.124063860000037,0.0]},"properties":{"Name":"TONDIARPET","Line":["Blue"]}},{"type":"Feature","geometry":{"type":"Point","coordinates":[80.29292089000006,13.134308961000043,0.0]},"properties":{"Name":"NEW WASHERMENPET","Line":["Blue"]}},{"type":"Feature","geometry":{"type":"Point","coordinates":[80.29634547600007,13.143197774000045,0.0]},"properties":{"Name":"TOLLGATE","Line":["Blue"]}},{"type":"Feature","geometry":{"type":"Point","coordinates":[80.29952510700008,13.150910244000045,0.0]},"properties":{"Name":"KALADIPET","Line":["Blue"]}},{"type":"Feature","geometry":{"type":"Point","coordinates":[80.30236020900008,13.159797204000029,0.0]},"properties":{"Name":"THIRUVOTRIYUR THERADI","Line":["Blue"]}},{"type":"Feature","geometry":{"type":"Point","coordinates":[80.30531558100006,13.17191245600003,0.0]},"properties":{"Name":"THIRUVOTRIYUR","Line":["Blue"]}},{"type":"Feature","geometry":{"type":"Point","coordinates":[80.30735261900008,13.17926006500005,0.0]},"properties":{"Name":"WIMCO NAGAR METRO","Line":["Blue"]}},{"type":"Feature","geometry":{"type":"Point","coordinates":[80.30942517000005,13.180860816000063,0.0]},"properties":{"Name":"WIMCO NAGAR DEPOT","Line":["Blue"]}},{"type":"Feature","geometry":{"type":"Point","coordinates":[80.21206322700004,13.05068093300002,0.0]},"properties":{"Name":"VADAPALANI","Line":["Green"]}},{"type":"Feature","geometry":{"type":"Point","coordinates":[80.23265540200003,13.075246469000035,0.0]},"properties":{"Name":"PACHAIAPPA S COLLEGE","Line":["Green"]}},{"type":"Feature","geometry":{"type":"Point","coordinates":[80.22509050100007,13.078695983000046,0.0]},"properties":{"Name":"SHENOY NAGAR","Line":["Green"]}},{"type":"Feature","geometry":{"type":"Point","coordinates":[80.21880926500006,13.084518129000058,0.0]},"properties":{"Name":"ANNA NAGAR EAST","Line":["Green"]}},{"type":"Feature","geometry":{"type":"Point","coordinates":[80.20908616500003,13.08485924100006,0.0]},"properties":{"Name":"ANNA NAGAR TOWER","Line":["Green"]}},{"type":"Feature","geometry":{"type":"Point","coordinates":[80.20350487900004,13.085113338000044,0.0]},"properties":{"Name":"THIRUMANGALAM","Line":["Green"]}},{"type":"Feature","geometry":{"type":"Point","coordinates":[80.19137524900003,13.07101555400004,0.0]},"properties":{"Name":"KOYAMBEDU DEPOT","Line":["Green"]}},{"type":"Feature","geometry":{"type":"Point","coordinates":[80.26086864600006,13.078972650000024,0.0]},"properties":{"Name":"EGMORE","Line":["Green"]}},{"type":"Feature","geometry":{"type":"Point","coordinates":[80.25027188100006,13.078517134000036,0.0]},"properties":{"Name":"NEHRU PARK","Line":["Green"]}},{"type":"Feature","geometry":{"type":"Point","coordinates":[80.24260992800004,13.07753633300007,0.0]},"properties":{"Name":"KILPAUK","Line":["Green"]}},{"type":"Feature","geometry":{"type":"Point","coordinates":[80.20524614300007,13.016481680000023,0.0]},"properties":{"Name":"EKKATTUTHANGAL","Line":["Green"]}},{"type":"Feature","geometry":{"type":"Point","coordinates":[80.21114317500007,13.035433467000075,0.0]},"properties":{"Name":"ASHOK NAGAR","Line":["Green"]}},{"type":"Feature","geometry":{"type":"Point","coordinates":[80.21168618600007,13.061973123000032,0.0]},"properties":{"Name":"ARUMBAKKAM","Line":["Green"]}},{"type":"Feature","geometry":{"type":"Point","coordinates":[80.20383460900007,13.06858580900007,0.0]},"properties":{"Name":"CMBT","Line":["Green"]}},{"type":"Feature","geometry":{"type":"Point","coordinates":[80.19739518400007,12.994648421000019,0.0]},"properties":{"Name":"St. THOMAS MOUNT","Line":["Green"]}}]}